City_ID,City,Lat,Lng,Max Temp,Humidity,Cloudiness,Wind Speed,Country,Date
0,iqaluit,63.7506,-68.5145,-20.15,99,100,1.26,CA,1703823893
1,harper,4.375,-7.7169,26.37,82,1,1.84,LR,1703823893
2,swellendam,-34.0226,20.4417,19.59,85,23,1.03,ZA,1703823893
3,coruripe,-10.1256,-36.1756,26.32,74,75,4.07,BR,1703823894
4,broome,42.2506,-75.833,9.21,98,100,0.0,US,1703823894
5,blackmans bay,-43.0167,147.3167,18.07,57,96,1.34,AU,1703823894
6,chonchi,-42.6128,-73.8092,10.56,97,90,1.14,CL,1703823894
7,semibratovo,57.3046,39.5369,-8.92,98,100,1.69,RU,1703823894
8,tiksi,71.6872,128.8694,-33.66,100,100,1.81,RU,1703823895
9,waitangi,-43.9535,-176.5597,16.57,82,100,11.46,NZ,1703823895
10,puerto ayora,-0.7393,-90.3518,24.75,95,88,2.24,EC,1703823895
11,punta arenas,-53.15,-70.9167,6.06,70,0,8.75,CL,1703823643
12,minas de marcona,-15.2119,-75.1103,17.7,86,99,3.03,PE,1703823896
13,wailua homesteads,22.0669,-159.378,20.44,86,100,6.69,US,1703823896
14,albany,42.6001,-73.9662,7.6,86,100,0.67,US,1703823896
15,happy valley-goose bay,53.3168,-60.3315,-10.83,67,20,4.63,CA,1703823896
16,karratha,-20.7377,116.8463,36.7,26,6,6.64,AU,1703823896
17,dolinsk,47.35,142.8,-7.93,58,98,3.79,RU,1703823897
18,avarua,-21.2078,-159.775,24.93,67,100,3.26,CK,1703823897
19,margaret river,-33.95,115.0667,24.56,41,26,1.68,AU,1703823676
20,georgetown,5.4112,100.3354,29.97,74,50,0.29,MY,1703823897
21,grytviken,-54.2811,-36.5092,0.7,90,98,4.49,GS,1703823898
22,greymouth,-42.4667,171.2,17.61,98,100,6.22,NZ,1703823898
23,sarayonu,38.262,32.4046,3.15,80,0,1.25,TR,1703823898
24,burang,30.25,81.1667,-1.76,23,0,0.57,CN,1703823898
25,port elizabeth,-33.918,25.5701,17.95,89,100,4.92,ZA,1703823681
26,adamstown,-25.066,-130.1015,22.59,82,16,9.06,PN,1703823899
27,olonkinbyen,70.9221,-8.7187,-10.12,82,100,9.65,SJ,1703823899
28,kovernino,57.1253,43.8142,-11.27,95,100,3.75,RU,1703823899
29,puerto natales,-51.7236,-72.4875,7.25,65,75,1.54,CL,1703823900
30,tralee,52.2704,-9.7026,7.26,81,98,5.45,IE,1703823900
31,ilulissat,69.2167,-51.1,-11.99,79,100,6.69,GL,1703823604
32,berdigestyakh,62.0989,126.6992,-38.9,100,97,0.44,RU,1703823900
33,edinburgh of the seven seas,-37.0676,-12.3116,15.8,78,25,5.87,SH,1703823901
34,papao,-17.75,-149.55,26.76,87,87,6.25,PF,1703823901
35,pilibangan,29.45,74.0833,15.77,35,7,3.0,IN,1703823901
36,sao joao do piaui,-8.3581,-42.2467,25.81,53,89,0.64,BR,1703823901
37,atafu village,-8.5421,-172.5159,29.27,72,15,3.3,TK,1703823902
38,dudinka,69.4058,86.1778,-20.77,92,99,1.5,RU,1703823767
39,sept-iles,50.2001,-66.3821,-5.0,68,3,2.57,CA,1703823761
40,bethel,41.3712,-73.414,8.27,87,100,2.57,US,1703823903
41,howrah,22.5892,88.3103,21.0,78,1,4.12,IN,1703823904
42,port-aux-francais,-49.35,70.2167,4.1,74,88,10.37,TF,1703823904
43,dryden,49.7833,-92.7503,-1.64,63,70,1.41,CA,1703823904
44,kualakapuas,-3.0091,114.3876,31.95,66,23,0.67,ID,1703823905
45,bozdogan,37.6713,28.314,4.34,65,0,1.56,TR,1703823905
46,sao gabriel da cachoeira,-0.1303,-67.0892,22.01,99,60,1.01,BR,1703823906
47,bilibino,68.0546,166.4372,-37.74,100,100,0.21,RU,1703823906
48,alamar,23.1583,-82.2769,21.12,75,93,4.1,CU,1703823907
49,vorgashor,67.5833,63.95,-12.46,89,100,3.62,RU,1703823908
50,nuuk,64.1835,-51.7216,-7.66,79,14,7.2,GL,1703823633
51,shawano,44.7822,-88.609,1.39,86,40,0.0,US,1703823908
52,antsiranana,-12.2787,49.2917,29.42,74,75,2.06,MG,1703823909
53,fortaleza,-3.7227,-38.5247,28.07,83,40,3.6,BR,1703823852
54,thompson,55.7435,-97.8558,-13.4,98,71,1.33,CA,1703823909
55,al bayda',32.7627,21.7551,8.24,88,9,1.05,LY,1703823910
56,ismailia,30.6043,32.2723,16.13,84,5,3.57,EG,1703823910
57,santiago de cao,-7.9589,-79.2392,22.07,88,75,2.57,PE,1703823911
58,hermanus,-34.4187,19.2345,20.36,83,98,4.51,ZA,1703823911
59,hamilton,39.1834,-84.5333,3.43,83,100,0.89,US,1703823496
60,kuta,-8.7233,115.1723,31.97,70,20,3.09,ID,1703823912
61,west island,-12.1568,96.8225,27.99,83,40,7.72,CC,1703823913
62,talnakh,69.4865,88.3972,-21.0,80,100,2.21,RU,1703823913
63,le port,-20.9373,55.2919,29.0,81,61,2.29,RE,1703823914
64,hawaiian paradise park,19.5933,-154.9731,23.73,73,40,3.09,US,1703823718
65,anadyr,64.75,177.4833,-31.72,83,20,4.0,RU,1703823915
66,hammerfest,70.6634,23.6821,-3.75,80,100,2.57,NO,1703823915
67,lazaro cardenas,17.9583,-102.2,22.23,80,0,1.79,MX,1703823915
68,borba,-4.3878,-59.5939,24.66,91,76,0.41,BR,1703823916
69,geraldton,-28.7667,114.6,32.23,40,91,8.23,AU,1703823584
70,da nang,16.0678,108.2208,22.99,94,75,2.06,VN,1703823674
71,villa gesell,-37.2639,-56.973,17.56,94,23,5.83,AR,1703823917
72,don sak,9.3168,99.6918,29.94,71,15,4.4,TH,1703823917
73,shingu,33.7333,135.9833,14.44,43,1,0.55,JP,1703823918
74,mechanicsville,37.6088,-77.3733,7.4,95,28,0.45,US,1703823913
75,luwuk,-0.9516,122.7875,30.83,69,26,1.68,ID,1703823918
76,kalianget,-7.05,113.9333,30.69,67,19,3.89,ID,1703823919
77,coquimbo,-29.9533,-71.3436,15.85,94,20,1.03,CL,1703823919
78,santa cruz del norte,23.1539,-81.9236,21.36,75,90,4.58,CU,1703823920
79,longyearbyen,78.2186,15.6401,-7.1,91,99,3.33,SJ,1703823661
80,newman,37.3138,-121.0208,13.49,91,50,0.84,US,1703823920
81,miandrivazo,-19.5167,45.4667,27.77,70,100,0.79,MG,1703823921
82,khandyga,62.6667,135.6,-47.85,99,91,0.1,RU,1703823921
83,kabin buri,13.9511,101.7177,31.95,100,8,3.41,TH,1703823922
84,kingston,17.997,-76.7936,22.89,92,100,0.92,JM,1703823920
85,saint-philippe,-21.3585,55.7679,28.77,82,66,4.71,RE,1703823922
86,libreville,0.3925,9.4537,26.81,83,100,2.57,GA,1703823878
87,ushuaia,-54.8,-68.3,4.81,75,75,11.83,AR,1703823707
88,puerto maldonado,-12.6,-69.1833,26.3,77,100,1.83,PE,1703823923
89,saint-pierre,-21.3393,55.4781,28.82,65,0,2.06,RE,1703823924
90,nova sintra,14.8667,-24.7167,22.64,74,90,6.28,CV,1703823924
91,yellowknife,62.456,-114.3525,-7.71,79,100,4.12,CA,1703823924
92,san antonio de pale,-1.4014,5.6325,26.96,81,100,3.4,GQ,1703823925
93,cartagena del chaira,1.3349,-74.8429,22.35,100,100,0.87,CO,1703823925
94,jiangyou,31.7667,104.7167,12.07,49,100,1.59,CN,1703823925
95,new amsterdam,6.25,-57.5167,23.7,96,100,2.03,GY,1703823926
96,tual,-5.6667,132.75,28.77,72,68,1.66,ID,1703823926
97,smara,26.7384,-11.6719,14.58,18,1,4.14,EH,1703823927
98,jayapura,-2.5333,140.7,25.66,75,100,1.43,ID,1703823927
99,port mathurin,-19.6833,63.4167,27.09,78,48,2.83,MU,1703823928
100,iskateley,67.6803,53.1512,-17.77,97,60,3.58,RU,1703823928
101,borgarnes,64.5383,-21.9206,-1.97,92,98,3.28,IS,1703823928
102,tshikapa,-6.4167,20.8,21.69,97,100,0.53,CD,1703823929
103,stanley,54.868,-1.6985,6.82,76,75,11.83,GB,1703823930
104,saipan,15.1355,145.701,27.46,75,74,9.86,MP,1703823931
105,jiaojiang,28.6803,121.4428,18.33,58,0,2.29,CN,1703823931
106,lebu,-37.6167,-73.65,12.92,95,21,3.72,CL,1703823932
107,sebring,27.4956,-81.4409,16.69,93,40,1.54,US,1703823769
108,vorkuta,67.5,64.0,-12.67,89,100,3.65,RU,1703823933
109,coahuayana de hidalgo,18.7,-103.6583,20.61,86,0,1.42,MX,1703823933
110,island harbour,50.724,-1.2758,11.29,87,77,4.02,GB,1703823934
111,port augusta,-32.5,137.7667,28.56,37,89,8.54,AU,1703823934
112,cidreira,-30.1811,-50.2056,22.9,83,74,1.8,BR,1703823934
113,nar'yan-mar,67.6713,53.087,-17.72,97,63,3.58,RU,1703823935
114,saint-francois,46.4154,3.9054,8.69,99,40,0.51,FR,1703823935
115,pyt-yakh,60.7499,72.8582,-3.57,95,100,6.6,RU,1703823936
116,antalaha,-14.9003,50.2788,25.91,86,100,1.23,MG,1703823936
117,haiku-pauwela,20.9219,-156.3051,21.13,93,100,5.66,US,1703823937
118,great falls,47.5002,-111.3008,6.34,60,0,3.09,US,1703823717
119,itapirapua,-15.8233,-50.6133,24.34,76,46,1.63,BR,1703823938
120,utrik,11.2278,169.8474,27.33,77,60,7.36,MH,1703823938
121,leshan,29.5623,103.7639,15.52,45,76,0.37,CN,1703823938
122,aylmer,42.7668,-80.983,5.84,92,91,4.0,CA,1703823939
123,qaqortoq,60.7167,-46.0333,-11.85,65,76,3.83,GL,1703823939
124,umba,66.6871,34.3429,-14.16,97,93,3.41,RU,1703823940
125,rancho palos verdes,33.7445,-118.387,14.81,92,19,1.34,US,1703823725
126,gorontalo,0.5412,123.0595,31.52,65,78,1.72,ID,1703823941
127,arinos,-15.9169,-46.1056,23.23,85,77,1.03,BR,1703823941
128,gardez,33.5974,69.2259,4.58,25,2,0.69,AF,1703823942
129,bonthe,7.5264,-12.505,23.73,90,7,2.09,SL,1703823942
130,ribeira grande,38.5167,-28.7,13.21,82,12,1.79,PT,1703823943
131,whitehorse,60.7161,-135.0538,-12.33,84,75,1.54,CA,1703823944
132,rong kwang,18.339,100.3174,28.91,40,20,0.66,TH,1703823944
133,saudarkrokur,65.7461,-19.6394,-12.39,88,99,2.25,IS,1703823945
134,sa'dah,16.9402,43.7639,11.71,59,0,0.68,YE,1703823945
135,constantia,44.1833,28.65,5.39,69,90,3.95,RO,1703823798
136,bam,29.106,58.357,13.93,30,21,1.08,IR,1703823946
137,naze,28.3667,129.4833,19.51,69,78,3.54,JP,1703823946
138,ancud,-41.8697,-73.8203,11.53,93,74,1.83,CL,1703823947
139,kodiak,57.79,-152.4072,-6.27,79,0,3.09,US,1703823947
140,alofi,-19.0595,-169.9187,27.94,69,40,6.17,NU,1703823950
141,lata,40.1629,-8.3327,10.6,89,100,1.43,PT,1703823950
142,praya,14.9215,-23.5087,25.3,38,75,6.17,CV,1703823953
143,prince rupert,54.3161,-130.3201,8.83,90,100,8.75,CA,1703823953
144,papatowai,-46.5619,169.4708,19.35,68,100,1.03,NZ,1703823953
145,udachny,66.4167,112.4,-39.31,100,66,1.21,RU,1703823859
146,neryungri,56.6709,124.6491,-24.76,97,97,1.23,RU,1703823955
147,nangloi jat,28.6833,77.0667,12.06,100,100,1.03,IN,1703823956
148,east london,-33.0153,27.9116,20.78,77,100,9.16,ZA,1703823956
149,liperi,62.5333,29.3667,-10.74,85,100,0.51,FI,1703823956
150,acapulco de juarez,16.8634,-99.8901,24.9,78,40,1.54,MX,1703823801
151,arauca,7.0847,-70.7591,27.27,69,88,1.67,CO,1703823956
152,hami,42.8,93.45,-4.56,65,3,2.83,CN,1703823957
153,gekhi,43.1669,45.4728,-0.42,53,28,1.41,RU,1703823957
154,antofagasta,-23.65,-70.4,19.6,77,30,1.36,CL,1703823957
155,funafuti,-8.5243,179.1942,33.0,70,40,1.03,TV,1703823958
156,invercargill,-46.4,168.35,18.55,82,100,2.12,NZ,1703823958
157,mount gambier,-37.8333,140.7667,19.37,42,0,5.02,AU,1703823958
158,callao,-12.0667,-77.15,23.16,73,0,7.2,PE,1703823958
159,saint-leu,-21.15,55.2833,28.48,81,55,0.99,RE,1703823959
160,la paz,-16.5,-68.15,11.43,66,75,3.6,BO,1703823678
161,ust-nera,64.5667,143.2,-37.1,100,100,0.87,RU,1703823959
162,lihue,21.9789,-159.3672,20.77,80,100,6.69,US,1703823959
163,choibalsan,48.0667,114.5,-10.89,97,79,1.18,MN,1703823960
164,carnarvon,-24.8667,113.6333,25.28,59,14,5.6,AU,1703823960
165,polyarnyy,69.1989,33.4478,-14.99,100,91,3.22,RU,1703823960
166,bredasdorp,-34.5322,20.0403,20.01,88,100,4.59,ZA,1703823960
167,soron,27.8833,78.75,16.11,57,0,1.7,IN,1703823961
168,pisco,-13.7,-76.2167,20.96,85,100,2.03,PE,1703823859
169,watsa,3.0372,29.5355,19.65,70,96,0.72,CD,1703823961
170,barinitas,8.7622,-70.4111,23.53,76,81,2.02,VE,1703823961
171,inirida,3.8653,-67.9239,24.08,95,100,1.32,CO,1703823961
172,axim,4.8699,-2.2405,25.68,85,5,1.49,GH,1703823962
173,roma,43.2128,-75.4557,8.94,98,100,1.83,US,1703823843
174,sillamae,59.3997,27.7547,-1.55,95,100,4.69,EE,1703823962
175,berezovyy,51.6667,135.7,-16.87,73,91,0.58,RU,1703823963
176,matoury,4.8483,-52.3317,25.98,94,40,1.03,GF,1703823963
177,isla vista,34.4133,-119.861,15.94,91,100,2.06,US,1703823963
178,yerofey pavlovich,53.9667,121.9667,-19.33,80,52,0.58,RU,1703823963
179,alice springs,-23.7,133.8833,39.75,10,11,3.6,AU,1703823964
180,kayangel,8.0823,134.7173,28.04,80,82,5.44,PW,1703823964
181,nagqu,31.5,92.0,-12.88,24,0,1.63,CN,1703823965
182,vytegra,61.0064,36.4481,-12.58,98,94,0.89,RU,1703823965
183,chita,52.0333,113.55,-18.06,84,100,0.0,RU,1703823965
184,west bay,19.3667,-81.4167,25.0,84,100,3.12,KY,1703823966
185,new norfolk,-42.7826,147.0587,18.72,62,100,3.83,AU,1703823966
186,arraial do cabo,-22.9661,-42.0278,23.47,86,1,9.08,BR,1703823966
187,puerto baquerizo moreno,-0.9,-89.6,24.16,89,99,4.22,EC,1703823745
188,neiafu,-18.65,-173.9833,28.38,74,40,6.17,TO,1703823967
189,kyustendil,42.2839,22.6911,5.98,64,44,0.77,BG,1703823967
190,plastun,44.7561,136.2939,-2.95,49,85,2.17,RU,1703823968
191,altai,46.3722,96.2583,-13.36,91,57,2.83,MN,1703823968
192,gadzhiyevo,69.2551,33.3362,-15.87,100,95,3.27,RU,1703823969
193,trairi,-3.2778,-39.2689,26.67,85,53,3.42,BR,1703823925
194,mosjoen,65.836,13.1908,-9.71,85,100,0.51,NO,1703823969
195,mount pearl,47.5166,-52.7813,-4.26,83,20,4.12,CA,1703823970
196,san juan de miraflores,-12.1629,-76.9635,22.29,85,100,2.98,PE,1703823970
197,zaozersk,69.4005,32.4476,-16.41,100,98,1.85,RU,1703823970
198,l'alcora,40.0667,-0.2,9.45,19,100,1.36,ES,1703823970
199,vernon,50.2581,-119.2691,2.74,83,100,1.08,CA,1703823962
200,touros,-5.1989,-35.4608,26.12,78,4,5.32,BR,1703823971
201,zhumysker,49.3333,49.4,-2.31,88,91,7.18,KZ,1703823971
202,madera,37.1666,-119.8343,15.6,76,29,2.01,US,1703823972
203,filadelfia,39.9523,-75.1638,11.68,95,100,2.26,US,1703823786
204,camocim,-2.9022,-40.8411,26.36,87,93,4.08,BR,1703823972
205,sougueur,35.1857,1.4961,2.07,87,0,1.03,DZ,1703823972
206,tughyl,47.7252,84.2063,-3.87,81,95,10.59,KZ,1703823973
207,isangel,-19.55,169.2667,31.06,62,75,3.09,VU,1703823973
208,college,64.8569,-147.8028,-29.82,73,20,0.0,US,1703823891
209,paita,-5.0892,-81.1144,23.04,81,100,2.75,PE,1703823974
210,la passe,45.5549,-0.8967,10.13,93,98,3.31,FR,1703823974
211,capinzal,-27.3436,-51.6119,20.48,87,0,1.14,BR,1703823974
212,ibarreta,-25.2144,-59.8585,28.66,53,13,2.6,AR,1703823974
213,eilat,29.5581,34.9482,15.85,73,0,2.95,IL,1703823975
214,ntui,4.45,11.6333,19.26,90,46,0.36,CM,1703823975
215,malango,-2.9627,119.9001,25.8,86,65,1.31,ID,1703823975
216,yunyang,33.4474,112.7142,7.17,60,95,1.77,CN,1703823975
217,sarmiento,-45.5882,-69.07,11.79,53,3,2.89,AR,1703823976
218,penhalonga,-18.8911,32.6978,16.08,99,100,1.06,ZW,1703823976
219,mandan,46.8267,-100.8896,-1.11,90,0,3.09,US,1703823905
220,kapa'a,22.0752,-159.319,21.18,85,100,6.69,US,1703823977
221,fale old settlement,-9.3852,-171.2468,28.98,71,30,1.82,TK,1703823977
222,badger,64.8,-147.5333,-29.86,75,20,0.0,US,1703823978
223,fort bragg,35.139,-79.006,6.56,89,0,3.09,US,1703823978
224,springbok,-29.6643,17.8865,13.3,85,63,0.98,ZA,1703823978
225,qa'en,33.7265,59.1844,7.33,52,86,1.84,IR,1703823979
226,wanning,18.8003,110.3967,23.34,83,100,5.04,CN,1703823979
227,al jawf,29.5,38.75,12.47,74,100,3.58,SA,1703823979
228,el granada,37.5027,-122.4694,17.18,91,59,3.32,US,1703823979
229,zhumadian,32.9794,114.0294,4.84,65,100,0.7,CN,1703823980
230,kupang,-10.1667,123.5833,32.04,60,24,1.93,ID,1703823980
231,mareeba,-17.0,145.4333,34.69,57,8,2.54,AU,1703823981
232,ed damer,17.5928,33.9592,15.22,43,0,5.56,SD,1703823982
233,akureyri,65.6835,-18.0878,-17.04,92,0,1.03,IS,1703823982
234,horta,38.5333,-28.6333,12.79,82,15,1.79,PT,1703823982
235,pitimbu,-7.4706,-34.8086,24.33,64,75,4.15,BR,1703823982
236,dawson creek,55.7666,-120.2362,-0.63,80,43,2.37,CA,1703823798
237,usinsk,65.9939,57.5281,-11.63,89,100,4.47,RU,1703823983
238,khuzdar,27.7384,66.6434,14.57,22,25,0.5,PK,1703823983
239,faro,37.0194,-7.9322,13.87,71,20,3.09,PT,1703823950
240,medina,24.4686,39.6142,17.24,63,40,5.14,SA,1703823984
241,rio grande,-32.035,-52.0986,23.86,76,88,2.8,BR,1703823941
242,korla,41.7597,86.1469,-2.16,58,13,0.91,CN,1703823984
243,lompoc,34.6391,-120.4579,14.4,89,100,0.45,US,1703823862
244,st. john's,47.5649,-52.7093,-3.8,83,20,4.12,CA,1703823957
245,revda,56.801,59.9303,-16.0,97,99,3.53,RU,1703823985
246,chissamba,-12.1667,17.3333,16.36,95,88,0.54,AO,1703823985
247,enewetak,11.3474,162.3373,27.76,81,44,6.24,MH,1703823985
248,macas,-2.3167,-78.1167,19.01,97,100,1.43,EC,1703823939
249,at taj,24.2049,23.2857,9.05,71,0,3.56,LY,1703823986
250,susuman,62.7833,148.1667,-36.12,100,100,0.89,RU,1703823986
251,mugia,43.1041,-9.2179,10.51,70,87,1.56,ES,1703823986
252,daryapur,20.9333,77.3333,22.57,42,85,2.39,IN,1703823987
253,jamestown,42.097,-79.2353,6.77,96,100,3.6,US,1703823916
254,port douglas,-16.4833,145.4667,29.92,67,5,2.57,AU,1703823987
255,tura,25.5198,90.2201,23.3,50,0,0.21,IN,1703823987
256,martuk,50.7475,56.5056,-8.47,89,100,9.0,KZ,1703823988
257,sailana,23.4667,74.9167,19.61,38,3,4.25,IN,1703823988
258,cabo san lucas,22.8909,-109.9124,20.42,63,4,0.75,MX,1703823600
259,orange walk,17.8333,-88.8333,21.62,97,100,1.42,BZ,1703823988
260,slave lake,55.2834,-114.769,-8.01,93,0,1.03,CA,1703823989
261,ust'-charyshskaya pristan',52.3934,83.6635,-4.48,81,100,3.68,RU,1703823989
262,aasiaat,68.7098,-52.8699,-18.04,90,86,1.02,GL,1703823989
263,leava,-14.3,-178.1667,28.69,76,26,4.41,WF,1703823989
264,shush,32.1942,48.2436,16.5,63,90,3.56,IR,1703823990
265,port lincoln,-34.7333,135.8667,18.52,59,24,8.79,AU,1703823990
266,cockburn town,21.4612,-71.1419,25.38,72,30,4.74,TC,1703823990
267,muisne,0.6,-80.0333,24.56,92,93,2.43,EC,1703823990
268,prieska,-29.6641,22.7474,19.03,78,100,2.56,ZA,1703823990
269,qashar,53.3906,62.9297,-4.12,93,100,9.79,KZ,1703823991
270,lillesand,58.2488,8.3778,6.05,93,100,4.12,NO,1703823991
271,dakhla,23.6848,-15.958,19.89,39,92,3.8,EH,1703823979
272,orangeburg,33.4918,-80.8557,8.58,92,75,0.89,US,1703823889
273,kenora,49.8167,-94.4337,-6.46,93,100,2.57,CA,1703823992
274,the pas,53.8251,-101.2541,-7.11,93,4,1.69,CA,1703823992
275,al jahra',29.3375,47.6581,16.46,65,96,3.58,KW,1703823992
276,murzuq,25.9155,13.9184,9.67,48,0,3.8,LY,1703823992
277,mount isa,-20.7333,139.5,41.3,9,4,0.58,AU,1703823993
278,keflavik,64.0049,-22.5624,-2.05,86,75,4.12,IS,1703823993
279,lobujya,27.95,86.8167,-9.68,33,0,1.39,NP,1703823993
280,nuevitas,21.5453,-77.2644,23.07,89,100,2.85,CU,1703823993
281,lorengau,-2.0226,147.2712,28.39,78,99,1.08,PG,1703823994
282,gao,16.6362,1.637,17.4,20,0,4.38,ML,1703823994
283,kroonstad,-27.6504,27.2349,15.87,74,89,6.49,ZA,1703823994
284,hun,29.1268,15.9477,9.51,72,27,3.02,LY,1703823994
285,san patricio,28.017,-97.5169,13.8,55,95,1.11,US,1703823995
286,sarkand,45.41,79.9186,6.12,65,98,3.38,KZ,1703823995
287,rye,40.9807,-73.6837,9.62,91,100,2.06,US,1703823995
288,yorkton,51.2167,-102.4677,-6.09,93,20,3.6,CA,1703823995
289,cidade velha,14.9167,-23.6167,25.26,38,75,6.17,CV,1703823996
290,vila franca do campo,37.7167,-25.4333,11.23,79,0,0.89,PT,1703823996
291,medicine hat,50.0501,-110.6683,5.73,59,0,5.66,CA,1703823996
292,sarangani,5.4033,125.4636,28.09,79,35,9.1,PH,1703823997
293,cape canaveral,28.4058,-80.6048,16.66,91,0,3.09,US,1703823997
294,prineville,44.2999,-120.8345,8.58,71,100,3.6,US,1703823997
295,nyurba,63.2842,118.3319,-39.79,100,99,1.03,RU,1703823997
296,sant lluis,39.8526,4.2594,14.47,87,93,3.37,ES,1703823997
297,tazovsky,67.4667,78.7,-14.88,96,97,4.28,RU,1703823998
298,tropea,38.6754,15.8948,9.61,69,96,1.39,IT,1703823998
299,queenstown,-31.8976,26.8753,15.48,88,96,0.52,ZA,1703823998
300,tamandare,-8.7597,-35.1047,25.72,72,77,2.91,BR,1703823998
301,codrington,-38.2667,141.9667,17.36,54,0,6.33,AU,1703823999
302,al burayqah,30.4062,19.5739,15.38,63,0,2.12,LY,1703823999
303,manokwari,-0.8667,134.0833,26.03,88,100,0.96,ID,1703823999
304,grand baie,-20.0182,57.5802,27.04,71,84,5.67,MU,1703823999
305,luza,60.6308,47.2512,-15.99,96,98,2.38,RU,1703824000
306,peace river,56.2501,-117.286,-7.83,86,20,1.54,CA,1703823984
307,uliastay,47.7417,96.8444,-15.67,97,99,1.06,MN,1703824000
308,beidaihehaibin,39.8222,119.5181,0.1,69,8,5.84,CN,1703824001
309,laboulaye,-34.1266,-63.3912,23.49,42,100,2.99,AR,1703824001
310,nueva esperanza,15.2667,-87.6,21.79,99,65,0.23,HN,1703824001
311,rio san juan,19.6439,-70.0763,23.42,77,61,2.71,DO,1703824001
312,ascencion,31.1,-107.9833,8.32,24,68,2.41,MX,1703824002
313,acarau,-2.8856,-40.12,26.65,86,98,4.85,BR,1703824002
314,kununurra,-15.7667,128.7333,41.35,24,88,1.18,AU,1703824002
315,tete,-16.1564,33.5867,25.05,100,75,0.0,MZ,1703824002
316,sao paulo de olivenca,-3.3783,-68.8725,21.68,100,95,0.54,BR,1703824003
317,yemva,62.59,50.8594,-20.0,100,91,2.05,RU,1703824003
318,kibi,6.1649,-0.5538,21.59,94,66,0.25,GH,1703824003
319,labrador city,52.9463,-66.9114,-14.42,98,100,1.31,CA,1703824003
320,forde,61.4522,5.8572,5.41,75,100,3.6,NO,1703824003
321,ixtapa,20.7,-105.2,16.89,85,6,1.54,MX,1703824004
322,coyuca de benitez,17.0333,-100.0667,24.59,82,0,1.63,MX,1703824004
323,santanyi,39.3546,3.1291,13.23,91,86,2.22,ES,1703824004
324,suita,34.7614,135.5157,13.95,46,75,2.57,JP,1703824004
325,vadso,70.0744,29.7487,-7.91,93,75,4.12,NO,1703824005
326,oranjemund,-28.55,16.4333,15.87,88,0,2.91,NA,1703824005
327,sakakah,29.9697,40.2064,12.27,88,97,4.58,SA,1703824005
328,port alfred,-33.5906,26.891,18.43,90,100,3.13,ZA,1703824005
329,stung treng,13.5259,105.9683,31.66,46,11,2.15,KH,1703824006
330,gargalianoi,37.0667,21.6333,9.64,82,19,2.57,GR,1703824006
331,remire-montjoly,4.9167,-52.2667,26.02,94,40,1.03,GF,1703824006
332,sikasso,10.9167,-7.0,19.38,14,4,2.32,ML,1703824006
333,tukrah,32.5341,20.5791,13.99,72,14,1.3,LY,1703824007
334,blenheim,-41.516,173.9528,20.14,89,100,4.27,NZ,1703824007
335,muang xay,20.7,101.9833,25.11,43,9,0.44,LA,1703824007
336,novoishimskiy,53.1981,66.7694,-2.43,94,98,6.18,KZ,1703824007
337,petropavlovsk-kamchatsky,53.0452,158.6483,-6.67,58,40,2.0,RU,1703824008
338,dum duma,27.5667,95.5667,21.64,49,0,0.5,IN,1703824008
339,greenville,35.6127,-77.3663,8.02,93,0,0.45,US,1703823813
340,north elba,44.2434,-73.9543,3.88,97,100,0.67,US,1703824009
341,fruitland,38.3221,-75.6202,9.4,96,0,2.06,US,1703824009
342,poxoreo,-15.8372,-54.3892,24.0,57,53,1.65,BR,1703824009
343,valverde del camino,37.5751,-6.7543,8.35,61,97,1.6,ES,1703824009
344,ceeldheer,3.8488,47.1806,25.77,82,98,7.25,SO,1703824009
345,richards bay,-28.783,32.0377,19.81,87,96,0.66,ZA,1703824010
346,san clemente del tuyu,-36.3569,-56.7235,18.32,93,100,5.91,AR,1703824010
347,beledweyne,4.7358,45.2036,25.32,72,89,5.1,SO,1703824010
348,pasuquin,18.3328,120.6177,30.02,61,0,4.71,PH,1703824010
349,interlaken,36.9513,-121.7338,17.07,96,100,0.0,US,1703823857
350,sodankyla,67.4167,26.6,-21.56,100,100,0.59,FI,1703824011
351,nacozari de garcia,30.3742,-109.6908,10.27,18,4,2.55,MX,1703824011
352,pacific grove,36.6177,-121.9166,16.21,93,77,3.13,US,1703824011
353,kerema,-7.9631,145.7785,29.67,70,77,3.78,PG,1703824012
354,nha trang,12.25,109.1833,31.0,71,24,3.58,VN,1703824012
355,port blair,11.6667,92.75,29.02,70,40,5.66,IN,1703824012
356,buka,40.8108,69.1986,7.13,69,100,4.11,UZ,1703824012
357,oyem,1.5995,11.5793,20.57,99,55,0.93,GA,1703824013
358,chokwe,-24.5333,32.9833,21.25,87,100,3.94,MZ,1703824013
359,levuka,50.1834,-105.4011,1.84,66,52,5.38,CA,1703824013
360,corovode,40.5042,20.2272,7.64,81,37,0.57,AL,1703824014
361,nizhnevartovsk,60.9344,76.5531,-2.99,93,100,8.05,RU,1703824014
362,castillos,-34.1667,-53.8333,21.38,80,85,2.57,UY,1703824014
363,vavozh,56.7751,51.931,-12.0,92,100,5.69,RU,1703824014
364,neon karlovasion,37.7903,26.7044,12.73,72,0,1.2,GR,1703824015
365,palmer,42.1584,-72.3287,6.65,82,100,3.09,US,1703824015
366,truro,50.2653,-5.0544,10.6,80,75,8.23,GB,1703824015
367,kindu,-2.95,25.95,20.55,99,100,0.72,CD,1703824015
368,shache,38.4167,77.2406,1.17,39,1,0.45,CN,1703824016
369,isafjordur,66.0755,-23.124,-8.99,89,78,2.41,IS,1703824016
370,mil'kovo,55.6078,37.7956,-3.1,96,100,3.19,RU,1703824017
371,mersing,2.4312,103.8405,28.95,84,40,4.12,MY,1703824017
372,la ronge,55.1001,-105.2842,-5.88,86,20,3.6,CA,1703824017
373,shemgang,27.2169,90.6579,13.38,47,5,1.86,BT,1703824018
374,sitka,57.0531,-135.33,7.94,81,100,4.63,US,1703824018
375,saint croix,17.7397,-64.7388,22.75,78,0,2.06,VI,1703824018
376,vilyuchinsk,52.9306,158.4028,-5.85,83,100,3.57,RU,1703824019
377,kiunga,-6.1219,141.2906,32.39,61,100,1.06,PG,1703824019
378,holualoa,19.6228,-155.9522,22.1,87,10,1.52,US,1703824019
379,suva,-18.1416,178.4415,27.02,79,36,5.61,FJ,1703823806
380,behshahr,36.6923,53.5526,4.97,76,78,3.04,IR,1703824020
381,nouadhibou,20.931,-17.0347,19.99,60,7,2.06,MR,1703824020
382,dire,12.2833,-10.9667,20.67,14,3,0.82,ML,1703824020
383,baturaja,-4.1333,104.1667,32.12,60,76,0.72,ID,1703824021
384,portland,45.5234,-122.6762,10.99,78,100,5.81,US,1703823754
385,protvino,54.8664,37.2178,-2.5,96,100,2.68,RU,1703824021
386,kilkis,40.9919,22.8708,8.27,80,95,0.98,GR,1703824021
387,red wing,44.5625,-92.5338,1.05,88,100,2.06,US,1703824022
388,vila velha,-20.3297,-40.2925,23.97,88,75,1.03,BR,1703824022
389,nizhneudinsk,54.9076,99.0276,-3.76,93,100,1.1,RU,1703824023
390,barranca,-10.75,-77.7667,21.61,84,85,2.6,PE,1703824023
391,sur,22.5667,59.5289,22.31,73,0,0.38,OM,1703824023
392,dunedin,-45.8742,170.5036,17.71,80,93,1.85,NZ,1703824024
393,manakara,-22.1333,48.0167,22.74,95,100,3.35,MG,1703824024
394,mgandu,-5.95,34.1333,16.8,97,100,1.61,TZ,1703824024
395,perigueux,45.1833,0.7167,8.4,95,98,1.64,FR,1703824024
396,ierapetra,35.01,25.7353,13.97,78,1,2.68,GR,1703824025
397,qui nhon,13.7667,109.2333,25.56,83,38,5.92,VN,1703824025
398,fortuna,40.5982,-124.1573,16.51,72,20,11.32,US,1703824025
399,laojunmiao,39.8333,97.7333,0.68,22,0,1.61,CN,1703824026
400,rawson,-43.3002,-65.1023,12.1,59,47,5.3,AR,1703824026
401,ceres,37.5949,-120.9577,14.33,95,44,1.58,US,1703824026
402,kolonia town,6.964,158.206,28.27,74,89,2.24,FM,1703824026
403,rayon,19.1444,-99.5836,9.87,72,0,0.19,MX,1703824027
404,yaren,-0.5472,166.916,28.93,71,66,1.64,NR,1703824027
405,kuqa,41.7278,82.9364,-1.12,46,28,0.98,CN,1703824027
406,sanniquellie,7.3622,-8.7061,16.84,41,12,0.67,LR,1703824028
407,alesund,62.4723,6.1549,5.08,60,75,6.69,NO,1703824028
408,urengoy,65.9667,78.3667,-12.02,98,88,2.85,RU,1703824028
409,cheney,47.4874,-117.5758,1.0,93,98,2.44,US,1703824029
410,usogorsk,63.4106,48.6872,-26.3,100,98,1.18,RU,1703824029
411,ploneour-lanvern,47.9,-4.2833,12.16,89,97,10.45,FR,1703824029
412,dingtao,35.0683,115.5625,6.95,54,97,3.73,CN,1703824029
413,severo-yeniseyskiy,60.3725,93.0408,-14.12,98,97,1.34,RU,1703824030
414,tuzha,57.6062,47.936,-11.07,92,100,4.77,RU,1703824030
415,hassi messaoud,31.6804,6.0729,11.02,61,1,4.94,DZ,1703824030
416,arish,31.1316,33.7984,17.33,76,0,2.18,EG,1703824030
417,aljezur,37.3191,-8.8033,12.47,65,100,2.38,PT,1703824031
418,mejit,10.2753,170.8646,27.46,81,83,7.07,MH,1703824031
419,ulaangom,49.9811,92.0667,-20.74,93,51,0.17,MN,1703824031
420,pingliang,35.5392,106.6861,5.44,42,81,0.54,CN,1703824031
421,zemio,5.0314,25.1361,24.43,33,100,1.19,CF,1703824032
422,nelson bay,-32.7167,152.15,24.03,96,77,3.13,AU,1703824032
423,katsuura,35.1333,140.3,13.02,38,0,3.31,JP,1703824032
424,troitsko-pechorsk,62.7084,56.1964,-19.93,100,99,1.65,RU,1703824033
425,saldanha,-33.0117,17.9442,16.55,91,0,2.02,ZA,1703824033
426,gaspe,48.8334,-64.4819,-0.05,90,29,2.13,CA,1703824033
427,nadi,-17.8,177.4167,30.0,66,75,6.69,FJ,1703823946
428,manaure,11.7751,-72.4445,26.24,84,67,5.7,CO,1703824034
429,arcos de la frontera,36.7508,-5.8106,8.86,85,91,1.14,ES,1703824034
430,conduaga,8.862,117.4893,30.32,64,19,3.13,PH,1703824034
431,kokuy,52.2037,117.5529,-19.36,95,96,0.97,RU,1703824035
432,iquitos,-3.7481,-73.2472,24.02,100,75,0.0,PE,1703824035
433,taro,-8.3862,115.28,28.0,68,72,1.63,ID,1703824035
434,leticia,-4.2153,-69.9406,23.03,100,20,0.0,CO,1703824035
435,la banda,-27.7335,-64.2428,31.14,56,100,2.85,AR,1703824036
436,boa vista,2.8197,-60.6733,27.99,69,0,4.12,BR,1703823964
437,mangrol,21.1167,70.1167,23.97,45,100,2.75,IN,1703824036
438,kerikeri,-35.2268,173.9474,19.75,97,100,4.65,NZ,1703824037
439,saint-joseph,-21.3667,55.6167,28.21,77,60,3.92,RE,1703824037
440,kismayo,-0.3582,42.5454,27.31,83,100,3.7,SO,1703824037
441,tsiombe,-25.3,45.4833,23.76,83,100,2.45,MG,1703824038
442,kachug,53.9606,105.8817,-12.37,91,100,0.42,RU,1703824038
443,xiongzhou,25.1167,114.3,21.35,42,0,1.61,CN,1703824038
444,marka,1.7159,44.7717,26.04,87,100,7.16,SO,1703824038
445,kuvandyk,51.4781,57.3552,-10.76,93,100,8.26,RU,1703824039
446,barra de santo antonio,-9.4047,-35.5072,24.6,69,82,2.93,BR,1703824039
447,palau,7.503,134.621,30.98,70,75,4.63,PW,1703824039
448,guanica,17.9716,-66.908,24.99,63,100,2.33,PR,1703824039
449,klyuchi,52.2667,79.1667,-0.77,71,100,10.4,RU,1703824040
450,tutoia,-2.7619,-42.2744,27.07,85,100,4.76,BR,1703824040
451,shira,54.4911,89.9531,-9.38,90,34,2.13,RU,1703824040
452,palopo,-2.9996,120.1921,29.31,79,83,0.94,ID,1703824041
453,las tablas,7.7667,-80.2833,24.96,89,95,0.86,PA,1703824041
454,sechura,-5.5569,-80.8222,23.6,74,100,2.9,PE,1703824041
455,ingeniero jacobacci,-41.3427,-69.5448,15.29,37,3,5.06,AR,1703824042
456,cadale,2.7603,46.3222,26.4,84,100,8.48,SO,1703824042
457,kailua-kona,19.6406,-155.9956,24.17,88,13,1.89,US,1703824042
458,walvis bay,-22.9575,14.5053,15.73,91,0,2.42,NA,1703824043
459,ha'il,27.5219,41.6907,12.01,76,40,3.09,SA,1703824043
460,goure,13.9835,10.2704,13.67,33,0,3.78,NE,1703824043
461,aleksandrovskoye,44.7142,43.0008,0.07,79,56,2.4,RU,1703824043
462,labytnangi,66.6572,66.4183,-9.46,95,100,5.91,RU,1703824044
463,bamboo flat,11.7,92.7167,29.05,70,40,5.66,IN,1703824044
464,dalhart,36.0595,-102.5133,-3.99,74,0,3.09,US,1703823814
465,ubari,26.5921,12.7805,10.01,43,0,3.58,LY,1703824045
466,hithadhoo,-0.6,73.0833,27.78,78,100,3.69,MV,1703824045
467,barentu,15.1139,37.5928,19.06,74,3,1.04,ER,1703824045
468,pemangkat,1.1667,108.9667,28.5,77,69,2.61,ID,1703824045
469,kabinda,-6.1333,24.4833,18.34,97,99,0.35,CD,1703824046
470,dzhambeyty,50.2536,52.595,-5.36,85,80,7.23,KZ,1703824046
471,miracema do tocantins,-9.5618,-48.3967,24.57,86,83,0.82,BR,1703824046
472,ta`u,-14.2336,-169.5144,28.4,70,100,2.59,AS,1703824047
473,inongo,-1.95,18.2667,22.52,93,85,1.85,CD,1703824047
474,serpong,-6.3169,106.6642,33.3,100,70,2.47,ID,1703824047
475,carloforte,39.145,8.3058,12.6,82,100,1.84,IT,1703824048
476,playas,-2.6333,-80.3833,25.1,82,100,1.41,EC,1703824048
477,santa cruz,-17.8,-63.1667,28.9,55,73,5.53,BO,1703824048
478,zeya,53.75,127.2667,-20.84,90,94,1.05,RU,1703824049
479,vanimo,-2.6741,141.3028,27.87,84,100,1.02,PG,1703824049
480,praia da vitoria,38.7333,-27.0667,12.64,95,8,2.67,PT,1703824049
481,puerto armuelles,8.2833,-82.8667,23.94,92,100,2.24,PA,1703824049
482,guelmim,28.987,-10.0574,11.19,19,56,5.66,MA,1703824050
483,linxia chengguanzhen,35.6003,103.2064,2.88,27,0,1.42,CN,1703824008
484,flekkefjord,58.2971,6.6607,5.24,97,100,5.44,NO,1703824050
485,bokoro,12.3807,17.0568,18.26,25,3,3.89,TD,1703824050
486,tolanaro,-25.0319,46.9987,24.04,94,75,3.09,MG,1703824050
487,tanumah,27.1,44.1333,14.97,67,8,3.91,SA,1703824051
488,sao vicente,-23.9631,-46.3919,28.1,75,1,1.79,BR,1703824051
489,vyazemskiy,47.5378,134.7525,-10.19,90,100,3.48,RU,1703824051
490,akure,7.2526,5.1931,19.83,38,40,1.15,NG,1703824051
491,jolalpan,18.325,-98.8417,18.67,49,0,0.87,MX,1703824052
492,pangody,65.85,74.4859,-12.35,97,93,3.47,RU,1703824052
493,pimentel,-6.8367,-79.9342,23.16,83,0,5.66,PE,1703824052
494,viedma,-40.8135,-62.9967,14.85,63,1,6.81,AR,1703824052
495,krasnokamensk,50.0979,118.0369,-17.15,98,100,0.23,RU,1703824052
496,zhezqazghan,47.7833,67.7667,-2.68,86,75,16.0,KZ,1703824053
497,saurimo,-9.6608,20.3916,18.33,99,99,1.59,AO,1703824053
498,enshi,30.3,109.4833,11.41,87,97,0.91,CN,1703824053
499,san-pedro,4.7485,-6.6363,25.51,87,19,0.92,CI,1703824053
500,plast,54.3691,60.8136,-9.5,80,100,10.0,RU,1703824054
501,camiri,-20.05,-63.5167,23.17,72,100,0.84,BO,1703824054
502,viechtach,49.0792,12.8847,9.58,76,99,2.68,DE,1703824054
503,ebon,4.582,168.6964,28.65,78,94,4.02,MH,1703824054
504,kapuskasing,49.4169,-82.4331,-4.95,93,0,2.57,CA,1703824055
505,kilimatinde,-5.85,34.95,19.48,87,100,1.27,TZ,1703824055
506,nizhniy ingash,56.2,96.53,-6.05,91,85,2.98,RU,1703824055
507,rongelap,11.1635,166.8941,27.65,82,46,6.65,MH,1703824055
508,caninde,-4.3589,-39.3117,25.38,81,8,1.47,BR,1703824056
509,vakarai,55.6035,23.8213,6.29,93,100,5.75,LT,1703824056
510,hohhot,40.8106,111.6522,-6.84,68,100,1.0,CN,1703824056
511,kalampaka,39.7044,21.6269,8.65,67,71,1.56,GR,1703824056
512,kyshtovka,56.555,76.6271,-0.37,94,100,8.05,RU,1703824057
513,oriximina,-1.7656,-55.8661,25.37,85,78,1.44,BR,1703824057
514,mccook,40.2019,-100.6257,-3.54,86,71,3.71,US,1703824057
515,mae hong son,19.3003,97.9685,24.08,69,20,0.51,TH,1703824057
516,moyynkum,44.2914,72.9469,4.47,81,100,10.15,KZ,1703824058
517,bardai,11.65,7.2333,14.16,32,1,4.12,NG,1703824058
518,caleta olivia,-46.4393,-67.5281,12.32,58,58,1.97,AR,1703824058
519,ronne,55.1009,14.7066,5.95,93,100,5.14,DK,1703824059
520,vylkove,45.4021,29.586,6.08,75,79,3.43,UA,1703824059
521,baker city,44.7749,-117.8344,2.84,65,0,3.6,US,1703823997
522,sinabang,2.4803,96.3801,27.6,80,99,0.5,ID,1703824059
523,chui,-33.6971,-53.4616,23.23,69,81,2.83,UY,1703824060
524,artvin,41.1667,41.8333,0.27,77,10,2.26,TR,1703824060
525,garbahaarrey,3.3289,42.2209,27.22,64,95,1.87,SO,1703824060
526,manicore,-5.8092,-61.3003,24.1,96,94,0.69,BR,1703824060
527,tottori,35.5,134.2333,11.04,58,40,2.57,JP,1703824061
528,rikaze,29.25,88.8833,-1.34,11,0,0.44,CN,1703824061
529,sirte,31.2089,16.5887,14.17,74,89,4.09,LY,1703824061
530,vikulovo,56.8167,70.6107,0.33,98,100,8.51,RU,1703824061
531,katabu,-4.9333,122.5167,30.21,72,49,1.65,ID,1703824062
532,palikir - national government center,6.9248,158.1611,27.7,74,87,2.48,FM,1703824062
533,igarka,67.4667,86.5833,-19.01,96,100,3.14,RU,1703824062
534,ketchikan,55.3422,-131.6461,8.99,96,100,3.18,US,1703824062
535,barah,13.7,30.3667,14.66,37,2,4.23,SD,1703824063
536,lerwick,60.1545,-1.1494,3.0,81,100,8.79,GB,1703824063
537,robertsport,6.7533,-11.3686,26.03,86,91,1.91,LR,1703824063
538,barbacoas,1.6715,-78.1398,23.89,96,99,0.29,CO,1703824063
539,high river,50.5834,-113.8687,1.75,78,34,3.74,CA,1703824064
540,kharp,66.8014,65.8081,-9.21,94,100,4.65,RU,1703824064
541,redwood falls,44.5394,-95.1169,0.01,89,34,3.8,US,1703824064
542,cardonal,20.6,-99.1333,9.14,87,54,1.97,MX,1703824065
543,nuriootpa,-34.4833,139.0,26.88,32,39,4.26,AU,1703824065
544,kilindoni,-7.9139,39.6668,28.09,82,99,4.63,TZ,1703824065
545,baynjiwayn,35.6183,45.9541,3.29,59,0,2.16,IQ,1703824065
546,znamenskoye,57.1281,73.8282,0.35,97,100,7.28,RU,1703824066
547,ulladulla,-35.35,150.4667,18.74,87,100,2.7,AU,1703824066
548,tvoroyri,61.5556,-6.8111,4.09,68,100,16.08,FO,1703824066
549,luderitz,-26.6481,15.1594,14.26,92,0,1.25,NA,1703824066
550,soe,-9.8607,124.284,30.0,46,50,3.17,ID,1703824067
551,howard springs,-12.497,131.047,35.46,67,81,1.3,AU,1703824067
552,mossel bay,-34.1831,22.146,17.96,90,5,2.26,ZA,1703824067
553,lamu,-2.2717,40.902,27.12,86,99,3.41,KE,1703824067
554,livny,52.4253,37.6069,-1.03,95,100,6.03,RU,1703824068
555,suzemka,52.3178,34.0689,1.21,96,100,4.84,RU,1703824068
556,strezhevoy,60.7333,77.5889,-4.21,92,100,6.84,RU,1703824068
557,tromso,69.6496,18.957,-7.99,93,99,0.51,NO,1703824068
558,gua musang,4.8823,101.9644,27.8,87,65,1.05,MY,1703824069
559,katsuren-haebaru,26.3369,127.8719,22.43,78,100,8.23,JP,1703824069
560,namibe,-15.1961,12.1522,20.33,81,14,2.69,AO,1703824069
561,nadym,65.5333,72.5167,-14.63,99,86,3.44,RU,1703824069
562,salinopolis,-0.6136,-47.3561,26.44,87,97,3.81,BR,1703824070
563,turbo,8.0937,-76.7269,24.51,93,100,3.14,CO,1703824070
564,maryborough,-25.5333,152.7,34.86,43,0,4.64,AU,1703824070
565,safford,32.834,-109.7076,11.17,26,66,0.62,US,1703824070
566,desnogorsk,54.1508,33.2815,0.81,99,100,4.83,RU,1703824071
567,alvorada,-12.48,-49.1247,23.3,88,47,1.73,BR,1703824071
568,argo,37.6333,22.7333,10.13,69,2,1.24,GR,1703824071
569,bumba,2.1833,22.4667,21.77,59,68,0.75,CD,1703824071
570,tevriz,57.509,72.4042,0.36,98,100,6.23,RU,1703824072
571,sao joao da barra,-21.6403,-41.0511,23.0,91,0,3.79,BR,1703824072
572,riachao das neves,-11.7461,-44.91,24.27,58,95,0.44,BR,1703824072
573,rustaq,23.3908,57.4244,19.41,81,19,0.33,OM,1703824072
574,mazagao,-0.115,-51.2894,24.3,96,40,1.67,BR,1703824073
